[{"id":5695,"name":"10 Barrel Brewing Co","brewery_type":"large","street":"1411 NW Flanders St","city":"Portland","state":"Oregon","postal_code":"97209-2620","country":"United States","longitude":"-122.685505575334","latitude":"45.5259786","phone":"5032241700","website_url":"http://www.10barrel.com","updated_at":"2018-08-24T15:45:43.287Z","tag_list":[]},{"id":5699,"name":"13 Virtues Brewing Co","brewery_type":"brewpub","street":"6410 SE Milwaukie Ave","city":"Portland","state":"Oregon","postal_code":"97202-5518","country":"United States","longitude":"-122.648753114062","latitude":"45.4762536","phone":"5032393831","website_url":"http://www.13virtuesbrewing.com","updated_at":"2018-08-24T15:45:45.178Z","tag_list":[]},{"id":5704,"name":"Alameda Brewing Co","brewery_type":"micro","street":"4736 SE 24th Ave","city":"Portland","state":"Oregon","postal_code":"97202-4787","country":"United States","longitude":"-122.641249469587","latitude":"45.48882655","phone":"5034609025","website_url":"","updated_at":"2018-08-24T15:45:47.141Z","tag_list":[]},{"id":5703,"name":"Alameda Brewing Co","brewery_type":"micro","street":"4765 NE Fremont St","city":"Portland","state":"Oregon","postal_code":"97213-1724","country":"United States","longitude":"-122.613620946786","latitude":"45.54849565","phone":"5034609025","website_url":"http://www.alamedabrewing.com","updated_at":"2018-08-24T15:45:46.715Z","tag_list":[]},{"id":2976,"name":"Allagash Brewing Co","brewery_type":"regional","street":"50 Industrial Way","city":"Portland","state":"Maine","postal_code":"04103-1270","country":"United States","longitude":"-70.3179518","latitude":"43.7030951","phone":"2078785385","website_url":"http://www.allagash.com","updated_at":"2018-08-24T00:39:29.904Z","tag_list":[]},{"id":5711,"name":"Arlington Club","brewery_type":"micro","street":"811 SW Salmon St","city":"Portland","state":"Oregon","postal_code":"97205-3094","country":"United States","longitude":"-122.681859641942","latitude":"45.51786855","phone":"5032234141","website_url":"http://www.thearlingtonclub.com","updated_at":"2018-08-24T15:45:50.469Z","tag_list":[]},{"id":5712,"name":"Assembly brewing","brewery_type":"planning","street":"","city":"Portland","state":"Oregon","postal_code":"97206-3739","country":"United States","longitude":null,"latitude":null,"phone":"5037299080","website_url":"http://www.assemblybrewingco.com","updated_at":"2018-08-11T21:39:09.967Z","tag_list":[]},{"id":2980,"name":"Austin Street Brewery","brewery_type":"micro","street":"1 Industrial Way Ste 8","city":"Portland","state":"Maine","postal_code":"04103-1072","country":"United States","longitude":null,"latitude":null,"phone":"2072001994","website_url":"http://www.austinstreetbrewery.com","updated_at":"2018-08-11T21:37:30.384Z","tag_list":[]},{"id":5714,"name":"Back Pedal Brewing Company","brewery_type":"micro","street":"1425 NW Flanders St","city":"Portland","state":"Oregon","postal_code":"97209-2620","country":"United States","longitude":"-122.68565615","latitude":"45.52597595","phone":"9714005950","website_url":"http://backpedalbrewing.com","updated_at":"2018-08-24T15:45:51.400Z","tag_list":[]},{"id":5716,"name":"Baerlic Brewing Co","brewery_type":"micro","street":"2235 SE 11th Ave","city":"Portland","state":"Oregon","postal_code":"97214-5303","country":"United States","longitude":"-122.655082764836","latitude":"45.50680595","phone":"5034779418","website_url":"http://www.baerlicbrewing.com","updated_at":"2018-08-24T15:45:52.324Z","tag_list":[]},{"id":5722,"name":"Base Camp Brewing Co","brewery_type":"micro","street":"930 SE Oak St","city":"Portland","state":"Oregon","postal_code":"97214-1307","country":"United States","longitude":"-122.65611084313","latitude":"45.5198818","phone":"5034777479","website_url":"http://www.basecampbrewingco.com","updated_at":"2018-08-24T15:45:55.193Z","tag_list":[]},{"id":2987,"name":"Battery Steele Brewing","brewery_type":"micro","street":"1 Industrial Way Ste 12","city":"Portland","state":"Maine","postal_code":"04103-1072","country":"United States","longitude":null,"latitude":null,"phone":"","website_url":"http://www.batterysteele.com","updated_at":"2018-08-11T21:37:30.649Z","tag_list":[]},{"id":2993,"name":"Bissell Brothers Brewing","brewery_type":"micro","street":"4 Thompsons Pt Ste 108","city":"Portland","state":"Maine","postal_code":"04102-2639","country":"United States","longitude":"-70.2904097","latitude":"43.6514062","phone":"2074233622","website_url":"http://www.bissellbrothers.com","updated_at":"2018-08-24T00:39:36.895Z","tag_list":[]},{"id":5738,"name":"Breakside Brewery","brewery_type":"brewpub","street":"820 NE Dekum St","city":"Portland","state":"Oregon","postal_code":"97211-3630","country":"United States","longitude":"-122.657116959184","latitude":"45.5716937959184","phone":"5037196475","website_url":"http://www.breakside.com","updated_at":"2018-08-24T15:46:02.351Z","tag_list":[]},{"id":5740,"name":"Breakside Brewery Slabtown","brewery_type":"brewpub","street":"1570 NW 22nd Ave","city":"Portland","state":"Oregon","postal_code":"97210-2369","country":"United States","longitude":"-122.696613142857","latitude":"45.5338498571429","phone":"5034447597","website_url":"http://breakside.com","updated_at":"2018-08-24T15:46:03.333Z","tag_list":[]},{"id":5741,"name":"Brewed By Gnomes","brewery_type":"contract","street":"1735 SE 33rd Ave","city":"Portland","state":"Oregon","postal_code":"97214-5024","country":"United States","longitude":"-122.63085305","latitude":"45.51021595","phone":"","website_url":"","updated_at":"2018-08-24T15:46:03.800Z","tag_list":[]},{"id":5743,"name":"Brewery 26","brewery_type":"micro","street":"","city":"Portland","state":"Oregon","postal_code":"97218-2175","country":"United States","longitude":null,"latitude":null,"phone":"5037542250","website_url":"http://www.brewery26.com","updated_at":"2018-08-11T21:39:11.435Z","tag_list":[]},{"id":5748,"name":"Brewery In Planning - Portland","brewery_type":"planning","street":"","city":"Portland","state":"Oregon","postal_code":"97213","country":"United States","longitude":null,"latitude":null,"phone":"","website_url":"","updated_at":"2018-08-11T21:39:11.596Z","tag_list":[]},{"id":5751,"name":"BridgePort Brewing Co","brewery_type":"regional","street":"1318 NW Northrup St","city":"Portland","state":"Oregon","postal_code":"97209-2808","country":"United States","longitude":"-122.684860125652","latitude":"45.53133335","phone":"5032417179","website_url":"http://www.bridgeportbrew.com","updated_at":"2018-08-24T15:46:05.715Z","tag_list":[]},{"id":2998,"name":"Bunker Brewing Co","brewery_type":"micro","street":"17 Westfield St Unit D","city":"Portland","state":"Maine","postal_code":"04102-2730","country":"United States","longitude":null,"latitude":null,"phone":"2074505014","website_url":"http://www.bunkerbrewingco.com","updated_at":"2018-08-11T21:37:31.175Z","tag_list":[]},{"id":5754,"name":"Burnside Brewing Co","brewery_type":"micro","street":"701 E Burnside St","city":"Portland","state":"Oregon","postal_code":"97214-1218","country":"United States","longitude":"-122.6584695","latitude":"45.5233261","phone":"5032083476","website_url":"http://www.burnsidebrewco.com","updated_at":"2018-08-24T15:46:06.642Z","tag_list":[]},{"id":5757,"name":"Cascade Brewing","brewery_type":"brewpub","street":"7424 SW Beaverton Hillsdale Hwy","city":"Portland","state":"Oregon","postal_code":"97225-2149","country":"United States","longitude":"-122.699417","latitude":"45.478513","phone":"5032960110","website_url":"http://www.cascadebrewing.com","updated_at":"2018-08-24T15:46:08.053Z","tag_list":[]},{"id":5758,"name":"Cascade Brewing Barrel House","brewery_type":"micro","street":"939 SE Belmont St","city":"Portland","state":"Oregon","postal_code":"97214-2519","country":"United States","longitude":"-122.656005749976","latitude":"45.5167536","phone":"5032658603","website_url":"http://www.cascadebrewing.com","updated_at":"2018-08-24T15:46:08.535Z","tag_list":[]},{"id":5766,"name":"Coalition Brewing Co","brewery_type":"micro","street":"2705 SE Ankeny St Ste C","city":"Portland","state":"Oregon","postal_code":"97214-1817","country":"United States","longitude":null,"latitude":null,"phone":"5038948080","website_url":"http://www.coalitionbrewing.com","updated_at":"2018-08-11T21:39:12.222Z","tag_list":[]},{"id":5769,"name":"Columbia River Brewing Co","brewery_type":"brewpub","street":"1728 NE 40th Ave","city":"Portland","state":"Oregon","postal_code":"97212-5306","country":"United States","longitude":"-122.6217524","latitude":"45.5357321","phone":"5039436157","website_url":"http://www.columbiariverbrewpub.com","updated_at":"2018-08-24T15:46:13.613Z","tag_list":[]},{"id":3478,"name":"ConfluxCity Brewing Company","brewery_type":"micro","street":"110 N Water St","city":"Portland","state":"Michigan","postal_code":"48875","country":"United States","longitude":"-84.9032148381293","latitude":"42.8714242896063","phone":"5175269091","website_url":"http://www.confluxcitybrew.com","updated_at":"2018-08-24T00:42:37.634Z","tag_list":[]},{"id":5778,"name":"Culmination Brewing Co","brewery_type":"micro","street":"2117 NE Oregon St Ste 600","city":"Portland","state":"Oregon","postal_code":"97232-2796","country":"United States","longitude":null,"latitude":null,"phone":"9712549114","website_url":"http://www.culminationbrewing.com","updated_at":"2018-08-11T21:39:12.676Z","tag_list":[]},{"id":3002,"name":"Definitive Brewing Company","brewery_type":"micro","street":"35 Industrial Way","city":"Portland","state":"Maine","postal_code":"04103-1071","country":"United States","longitude":"-70.3142737024466","latitude":"43.7062952227186","phone":"","website_url":"http://www.definitivebrewing.com","updated_at":"2018-08-24T00:39:40.149Z","tag_list":[]},{"id":5787,"name":"Deschutes Brewery & Public House","brewery_type":"brewpub","street":"210 NW 11th Ave","city":"Portland","state":"Oregon","postal_code":"97209-2929","country":"United States","longitude":"-122.681880808861","latitude":"45.52468","phone":"5032964906","website_url":"http://www.deschutesbrewery.com","updated_at":"2018-08-24T16:01:21.754Z","tag_list":[]},{"id":3000,"name":"D.L. Geary Brewing Co Inc.","brewery_type":"micro","street":"38 Evergreen Dr","city":"Portland","state":"Maine","postal_code":"04103-1066","country":"United States","longitude":"-70.314848130679","latitude":"43.7076741571514","phone":"2078782337","website_url":"http://www.gearybrewing.com","updated_at":"2018-08-24T00:39:39.267Z","tag_list":[]},{"id":5793,"name":"Ecliptic Brewing","brewery_type":"micro","street":"825 N Cook St","city":"Portland","state":"Oregon","postal_code":"97227-1503","country":"United States","longitude":"-122.675118549414","latitude":"45.54737005","phone":"5032658002","website_url":"http://www.eclipticbrewing.com","updated_at":"2018-08-24T16:01:29.190Z","tag_list":[]},{"id":5796,"name":"Ex Novo Brewing Co","brewery_type":"micro","street":"2326 N Flint Ave","city":"Portland","state":"Oregon","postal_code":"97227-1905","country":"United States","longitude":"-122.66841465","latitude":"45.54002045","phone":"5038948251","website_url":"http://www.exnovobrew.com","updated_at":"2018-08-24T16:01:32.154Z","tag_list":[]},{"id":5800,"name":"Fire On the Mountain Brewing Co","brewery_type":"brewpub","street":"3443 NE 57th Ave","city":"Portland","state":"Oregon","postal_code":"97213-3351","country":"United States","longitude":"-122.6049402","latitude":"45.5480432","phone":"5038948973","website_url":"http://www.portlandwings.com","updated_at":"2018-08-24T16:01:36.686Z","tag_list":[]},{"id":3008,"name":"Fore River Brewing Company","brewery_type":"micro","street":"45 Huntress Ave","city":"South Portland","state":"Maine","postal_code":"04106-4115","country":"United States","longitude":"-70.2876710514231","latitude":"43.6324906649993","phone":"2073700629","website_url":"http://www.foreriverbrewing.com","updated_at":"2018-08-24T00:39:42.896Z","tag_list":[]},{"id":3009,"name":"Foulmouthed Brewing","brewery_type":"brewpub","street":"15 Ocean St","city":"South Portland","state":"Maine","postal_code":"04106-2838","country":"United States","longitude":"-70.2548007","latitude":"43.640989","phone":"2076186977","website_url":"http://www.foulmouthedbrewing.com","updated_at":"2018-08-24T00:39:43.338Z","tag_list":[]},{"id":3010,"name":"Foundation Brewing Company","brewery_type":"micro","street":"1 Industrial Way Ste 5","city":"Portland","state":"Maine","postal_code":"04103-1072","country":"United States","longitude":null,"latitude":null,"phone":"2073708187","website_url":"http://www.foundationbrew.com","updated_at":"2018-08-11T21:37:31.775Z","tag_list":[]},{"id":5805,"name":"Full Sail Brewery - Riverplace","brewery_type":"micro","street":"0307 SW Montgomery St","city":"Portland","state":"Oregon","postal_code":"97201-5125","country":"United States","longitude":"-122.673521447995","latitude":"45.50957205","phone":"5032225343","website_url":"http://www.fullsailbrewing.com","updated_at":"2018-08-24T16:01:44.127Z","tag_list":[]},{"id":5807,"name":"Funhouse Brews","brewery_type":"micro","street":"7717 N Emerald Ave Unit A","city":"Portland","state":"Oregon","postal_code":"97217-6111","country":"United States","longitude":null,"latitude":null,"phone":"3147532669","website_url":"http://www.funhousebrews.com","updated_at":"2018-08-11T21:39:13.730Z","tag_list":[]},{"id":3527,"name":"Gallery Brewery","brewery_type":"brewpub","street":"143 Kent St","city":"Portland","state":"Michigan","postal_code":"48875-1456","country":"United States","longitude":"-84.9028427142857","latitude":"42.8698587142857","phone":"5175269060","website_url":"http://www.thegallerybrewery.com","updated_at":"2018-08-24T00:42:59.371Z","tag_list":[]},{"id":5809,"name":"Gateway Brewing, Inc","brewery_type":"micro","street":"114 NE 133rd Ave","city":"Portland","state":"Oregon","postal_code":"97230-2528","country":"United States","longitude":"-122.5257352","latitude":"45.5239106","phone":"5039759103","website_url":"http://gatewaybrewingpdx.com","updated_at":"2018-08-24T16:01:50.054Z","tag_list":[]},{"id":5811,"name":"Gigantic Brewing Co","brewery_type":"micro","street":"5224 SE 26th Ave","city":"Portland","state":"Oregon","postal_code":"97202-4627","country":"United States","longitude":"-122.639209160382","latitude":"45.48500105","phone":"5032083416","website_url":"http://www.giganticbrewing.com","updated_at":"2018-08-24T16:01:53.132Z","tag_list":[]},{"id":3017,"name":"Goodfire Brewing Company","brewery_type":"micro","street":"219 Anderson St Ste 6","city":"Portland","state":"Maine","postal_code":"04101-1401","country":"United States","longitude":null,"latitude":null,"phone":"2078088910","website_url":"http://www.goodfirebrewing.com","updated_at":"2018-08-11T21:37:32.021Z","tag_list":[]},{"id":5817,"name":"Great Notion Brewing","brewery_type":"brewpub","street":"2204 NE Alberta St Ste 101","city":"Portland","state":"Oregon","postal_code":"97211-5885","country":"United States","longitude":null,"latitude":null,"phone":"5035484491","website_url":"http://www.greatnotionpdx.com","updated_at":"2018-08-11T21:39:14.103Z","tag_list":[]},{"id":5818,"name":"Great Notion Brewing NW","brewery_type":"micro","street":"2444 NW 28th Ave","city":"Portland","state":"Oregon","postal_code":"97210","country":"United States","longitude":"-122.708959927223","latitude":"45.5400197466401","phone":"5035484491","website_url":"","updated_at":"2018-08-24T16:02:02.284Z","tag_list":[]},{"id":3021,"name":"Gritty McDuffs - Portland","brewery_type":"brewpub","street":"396 Fore St","city":"Portland","state":"Maine","postal_code":"04101-4026","country":"United States","longitude":"-70.2533609","latitude":"43.6564108","phone":"2077722739","website_url":"http://www.grittys.com","updated_at":"2018-08-24T00:39:48.759Z","tag_list":[]},{"id":5819,"name":"Grixsen Brewing Co","brewery_type":"micro","street":"1001 SE Division St Ste 1","city":"Portland","state":"Oregon","postal_code":"97202-1076","country":"United States","longitude":null,"latitude":null,"phone":"9713473100","website_url":"http://www.grixsen.com","updated_at":"2018-08-11T21:39:14.190Z","tag_list":[]},{"id":5820,"name":"Ground Breaker Brewing","brewery_type":"brewpub","street":"715 SE Lincoln St","city":"Portland","state":"Oregon","postal_code":"97214-4600","country":"United States","longitude":"-122.658369725108","latitude":"45.50809545","phone":"5039284195","website_url":"http://www.harvesterbrewing.com","updated_at":"2018-08-24T16:02:05.391Z","tag_list":[]},{"id":3022,"name":"Gruit Brewing","brewery_type":"micro","street":"200 Anderson St","city":"Portland","state":"Maine","postal_code":"04101-2562","country":"United States","longitude":"-70.255898","latitude":"43.669074","phone":"2077738331","website_url":"http://www.fermentory.com","updated_at":"2018-08-24T00:39:49.201Z","tag_list":[]},{"id":5821,"name":"Hair of the Dog Brewing Co","brewery_type":"brewpub","street":"61 SE Yamhill St","city":"Portland","state":"Oregon","postal_code":"97214-2134","country":"United States","longitude":"-122.6655236","latitude":"45.5160413","phone":"5032326585","website_url":"http://www.hairofthedog.com","updated_at":"2018-08-24T16:02:07.044Z","tag_list":[]},{"id":5828,"name":"Hopworks Urban Brewery","brewery_type":"micro","street":"2944 SE Powell Blvd","city":"Portland","state":"Oregon","postal_code":"97202-2054","country":"United States","longitude":"-122.634827","latitude":"45.4968753","phone":"5032324677","website_url":"http://www.hopworksbeer.com","updated_at":"2018-08-24T16:02:16.406Z","tag_list":[]},{"id":3025,"name":"Island Dog Brewing","brewery_type":"micro","street":"125 John Roberts Rd","city":"South Portland","state":"Maine","postal_code":"04106-3295","country":"United States","longitude":"-70.3310144167096","latitude":"43.6305938611312","phone":"2073300283","website_url":"http://www.islanddogbrewing.com","updated_at":"2018-08-24T00:39:50.726Z","tag_list":[]},{"id":5832,"name":"Kells Brew Pub","brewery_type":"brewpub","street":"210 NW 21st Ave","city":"Portland","state":"Oregon","postal_code":"97209-1004","country":"United States","longitude":"-122.6941546","latitude":"45.52447285","phone":"5037197175","website_url":"http://Kellsbrewpub.com","updated_at":"2018-08-24T16:02:22.379Z","tag_list":[]},{"id":5836,"name":"LABrewatory","brewery_type":"micro","street":"670 N Russell St","city":"Portland","state":"Oregon","postal_code":"97227-1728","country":"United States","longitude":"-122.673082571429","latitude":"45.5409227142857","phone":"9712718151","website_url":"http://www.thelabrewatory.com","updated_at":"2018-08-24T16:02:28.515Z","tag_list":[]},{"id":5838,"name":"Laurelwood Public House and Brewery - NE","brewery_type":"micro","street":"5115 NE Sandy Blvd","city":"Portland","state":"Oregon","postal_code":"97213-2525","country":"United States","longitude":"-122.61067265665","latitude":"45.54014675","phone":"5032820622","website_url":"http://laurelwoodbrewingco.com","updated_at":"2018-08-24T16:02:31.517Z","tag_list":[]},{"id":5837,"name":"Laurelwood Public House & Brewery - SE Portland","brewery_type":"brewpub","street":"6716 SE Milwaukie Ave","city":"Portland","state":"Oregon","postal_code":"97202-5618","country":"United States","longitude":"-122.64849505","latitude":"45.47415655","phone":"5039436157","website_url":"","updated_at":"2018-08-24T16:02:29.973Z","tag_list":[]},{"id":5840,"name":"Level Beer","brewery_type":"micro","street":"5211 NE 148th Ave","city":"Portland","state":"Oregon","postal_code":"97230-3434","country":"United States","longitude":"-122.511027517544","latitude":"45.560506","phone":"5037141222","website_url":"http://www.levelbeer.com","updated_at":"2018-08-24T16:02:32.997Z","tag_list":[]},{"id":3032,"name":"Liquid Riot Bottling Co.","brewery_type":"brewpub","street":"4 Canal Plz Ste 1","city":"Portland","state":"Maine","postal_code":"04101-4594","country":"United States","longitude":null,"latitude":null,"phone":"2072218889","website_url":"http://www.novareresbiercafe.com","updated_at":"2018-08-11T21:37:32.643Z","tag_list":[]},{"id":5843,"name":"Lompoc Brewing, LLC/ The 5th Quadrant","brewery_type":"brewpub","street":"3901 N Williams Ave Ste B","city":"Portland","state":"Oregon","postal_code":"97227-1465","country":"United States","longitude":null,"latitude":null,"phone":"5032883996","website_url":"http://www.newoldlompoc.com/5thquadranthome.html","updated_at":"2018-08-11T21:39:14.998Z","tag_list":[]},{"id":3033,"name":"Lone Pine Brewing Company","brewery_type":"micro","street":"219 Anderson St #4","city":"Portland","state":"Maine","postal_code":"04101-1400","country":"United States","longitude":"-70.2557731770637","latitude":"43.6696532249529","phone":"2075364952","website_url":"http://www.lonepinebrewery.com","updated_at":"2018-08-24T00:39:54.411Z","tag_list":[]},{"id":5845,"name":"Look Long Brewing Company","brewery_type":"micro","street":"6550 N Interstate Ave","city":"Portland","state":"Oregon","postal_code":"97217-4836","country":"United States","longitude":"-122.6818062","latitude":"45.57066185","phone":"5032860343","website_url":"http://www.looklongbrewingcompany.com","updated_at":"2018-08-24T16:02:39.003Z","tag_list":[]},{"id":5847,"name":"Lucky Labrador Beer Hall","brewery_type":"brewpub","street":"1945 NW Quimby St","city":"Portland","state":"Oregon","postal_code":"97209-1712","country":"United States","longitude":"-122.691736156892","latitude":"45.53370375","phone":"5035174352","website_url":"http://www.luckylab.com","updated_at":"2018-08-24T16:02:41.921Z","tag_list":[]},{"id":5848,"name":"Lucky Labrador Brewpub","brewery_type":"micro","street":"915 SE Hawthorne Blvd","city":"Portland","state":"Oregon","postal_code":"97214-3545","country":"United States","longitude":"-122.656414863274","latitude":"45.51247125","phone":"5032363555","website_url":"http://www.luckylab.com","updated_at":"2018-08-24T16:02:43.430Z","tag_list":[]},{"id":5849,"name":"Madcow Brewing Co.","brewery_type":"micro","street":"206 SE 166th Ave","city":"Portland","state":"Oregon","postal_code":"97233-4202","country":"United States","longitude":"-122.4924064","latitude":"45.5034238","phone":"","website_url":"http://www.madcowbrewing.com","updated_at":"2018-08-24T16:02:44.908Z","tag_list":[]},{"id":5851,"name":"Max's Fanno Creek Brew Pub","brewery_type":"brewpub","street":"12562 SW Main St","city":"Portland","state":"Oregon","postal_code":"97223-6195","country":"United States","longitude":"-122.6771146","latitude":"45.5156226","phone":"5036249400","website_url":"http://www.maxsfannocreek.com","updated_at":"2018-08-24T16:02:48.564Z","tag_list":[]},{"id":5855,"name":"McMenamins Breweries","brewery_type":"micro","street":"430 N Killingsworth St","city":"Portland","state":"Oregon","postal_code":"97217-2441","country":"United States","longitude":"-122.6708111765","latitude":"45.5624447","phone":"5032230109","website_url":"http://www.mcmenamins.com","updated_at":"2018-08-24T16:02:54.688Z","tag_list":[]},{"id":5856,"name":"McMenamins Concordia Brewery at Kennedy School","brewery_type":"brewpub","street":"5736 NE 33rd Ave","city":"Portland","state":"Oregon","postal_code":"97211-7302","country":"United States","longitude":"-122.629969421269","latitude":"45.56447065","phone":"5032881937","website_url":"http://www.mcmenamins.com","updated_at":"2018-08-24T16:02:56.161Z","tag_list":[]},{"id":5858,"name":"McMenamins Crystal Ballroom Brewery","brewery_type":"brewpub","street":"1332 W Burnside St","city":"Portland","state":"Oregon","postal_code":"97209-2612","country":"United States","longitude":"-122.6850673","latitude":"45.5228146","phone":"5037785625","website_url":"http://www.mcmenamins.com","updated_at":"2018-08-24T16:02:59.092Z","tag_list":[]},{"id":5860,"name":"McMenamins Fulton Pub and Brewery","brewery_type":"micro","street":"0618 SW Nebraska St","city":"Portland","state":"Oregon","postal_code":"97239-3556","country":"United States","longitude":"-122.672622265963","latitude":"45.47711805","phone":"5032464363","website_url":"http://www.mcmenamins.com","updated_at":"2018-08-24T16:03:02.051Z","tag_list":[]},{"id":5863,"name":"McMenamins Hillsdale Brewery and Public House","brewery_type":"micro","street":"1505 SW Sunset Blvd","city":"Portland","state":"Oregon","postal_code":"97239-2625","country":"United States","longitude":"-122.6936922","latitude":"45.4792439","phone":"5032931753","website_url":"http://www.mcmenamins.com","updated_at":"2018-08-24T16:03:06.453Z","tag_list":[]},{"id":5867,"name":"McMenamins Oak Hills Brewery","brewery_type":"micro","street":"14740 NW Cornell Rd Ste 80","city":"Portland","state":"Oregon","postal_code":"97229-5400","country":"United States","longitude":"-122.7105079","latitude":"45.5330425","phone":"5036450117","website_url":"http://www.mcmenamins.com","updated_at":"2018-08-24T16:03:12.648Z","tag_list":[]},{"id":5876,"name":"Migration Brewing Co","brewery_type":"micro","street":"1818 NE Wilkes Rd","city":"Portland","state":"Oregon","postal_code":"97230","country":"United States","longitude":null,"latitude":null,"phone":"","website_url":"","updated_at":"2018-08-11T21:39:16.224Z","tag_list":[]},{"id":5875,"name":"Migration Brewing Co","brewery_type":"brewpub","street":"2828 NE Gilsan St","city":"Portland","state":"Oregon","postal_code":"97232","country":"United States","longitude":null,"latitude":null,"phone":"5032065221","website_url":"http://www.migrationbrewing.com","updated_at":"2018-08-11T21:39:16.187Z","tag_list":[]},{"id":5878,"name":"Modern Times - The Belmont Fermentorium","brewery_type":"brewpub","street":"630 SE Belmont St","city":"Portland","state":"Oregon","postal_code":"97214-2372","country":"United States","longitude":"-122.6590469","latitude":"45.516294","phone":"","website_url":"","updated_at":"2018-08-24T16:03:28.994Z","tag_list":[]},{"id":5880,"name":"Montavilla Brew Works","brewery_type":"micro","street":"7805 SE Stark St","city":"Portland","state":"Oregon","postal_code":"97215-2339","country":"United States","longitude":"-122.58335572513","latitude":"45.5193212","phone":"5039543440","website_url":"http://www.montavillabrew.com","updated_at":"2018-08-24T16:03:32.011Z","tag_list":[]},{"id":5881,"name":"Moonshrimp Brewing","brewery_type":"micro","street":"8428 SW 22nd Ave","city":"Portland","state":"Oregon","postal_code":"97219-2856","country":"United States","longitude":"-122.700080917205","latitude":"45.4637206","phone":"5039702234","website_url":"http://www.moonshrimpbrewing.com","updated_at":"2018-08-24T16:03:33.495Z","tag_list":[]},{"id":5884,"name":"Mt Tabor Brewing Co","brewery_type":"micro","street":"124 SE 11th Ave","city":"Portland","state":"Oregon","postal_code":"97214-1354","country":"United States","longitude":"-122.654188025389","latitude":"45.52171275","phone":"3605678199","website_url":"http://www.mttaborbrewing.com","updated_at":"2018-08-24T16:03:37.915Z","tag_list":[]},{"id":5885,"name":"Natian Brewery","brewery_type":"micro","street":"1321 NE Couch St","city":"Portland","state":"Oregon","postal_code":"97232-3007","country":"United States","longitude":"-122.652973345472","latitude":"45.5249032","phone":"9716787116","website_url":"http://www.natianbrewery.com","updated_at":"2018-08-24T16:03:39.389Z","tag_list":[]},{"id":5891,"name":"Occidental Brewing","brewery_type":"micro","street":"6635 N Baltimore Ave Ste 100","city":"Portland","state":"Oregon","postal_code":"97203-5465","country":"United States","longitude":null,"latitude":null,"phone":"5037197102","website_url":"http://www.occidentalbrewing.com","updated_at":"2018-08-11T21:39:16.897Z","tag_list":[]},{"id":5894,"name":"Old Market Pub and Brewery","brewery_type":"brewpub","street":"6959 SW Multnomah Blvd","city":"Portland","state":"Oregon","postal_code":"97223-3439","country":"United States","longitude":"-122.748671455558","latitude":"45.46603555","phone":"5032440450","website_url":"http://www.drinkbeerhere.com","updated_at":"2018-08-24T16:03:49.788Z","tag_list":[]},{"id":5895,"name":"Old Town Brewing","brewery_type":"brewpub","street":"5201 NE M L King Blvd","city":"Portland","state":"Oregon","postal_code":"97211-3235","country":"United States","longitude":null,"latitude":null,"phone":"5032005988","website_url":"http://www.otbrewing.com","updated_at":"2018-08-11T21:39:17.090Z","tag_list":[]},{"id":3053,"name":"One Eye Open Brewing Company","brewery_type":"micro","street":"41 Fox Street Shed A","city":"Portland","state":"Maine","postal_code":"04101-2538","country":"United States","longitude":null,"latitude":null,"phone":"2075364176","website_url":"http://www.oeobrewing.com","updated_at":"2018-08-11T21:37:33.446Z","tag_list":[]},{"id":3058,"name":"Oxbow Blending & Bottling","brewery_type":"micro","street":"49 Washington Ave","city":"Portland","state":"Maine","postal_code":"04101","country":"United States","longitude":"-70.2513253","latitude":"43.6649414","phone":"","website_url":"","updated_at":"2018-08-24T00:40:04.074Z","tag_list":[]},{"id":3060,"name":"Peak Organic Brewing Co","brewery_type":"proprietor","street":"110 Marginal Way # 802","city":"Portland","state":"Maine","postal_code":"04101-2442","country":"United States","longitude":"-70.2645487791521","latitude":"43.6624477565325","phone":"2075865586","website_url":"http://www.peakbrewing.com","updated_at":"2018-08-24T00:40:04.990Z","tag_list":[]},{"id":5905,"name":"PINTS Brewing Company and Urban Taproom","brewery_type":"micro","street":"412 NW 5th Ave Suite 200","city":"Portland","state":"Oregon","postal_code":"97209-3893","country":"United States","longitude":null,"latitude":null,"phone":"5035642739","website_url":"http://www.pintsbrewing.com","updated_at":"2018-08-11T21:39:17.533Z","tag_list":[]},{"id":5907,"name":"Pono Brewing Company","brewery_type":"contract","street":"5716 SE 92nd Ave","city":"Portland","state":"Oregon","postal_code":"97266-4659","country":"United States","longitude":"-122.5679347","latitude":"45.4808905","phone":"5034328400","website_url":"http://www.ponobrewing.com","updated_at":"2018-08-24T16:04:08.128Z","tag_list":[]},{"id":5909,"name":"Portland Brewing/North American Breweries","brewery_type":"regional","street":"2730 NW 31st Ave","city":"Portland","state":"Oregon","postal_code":"97210-1718","country":"United States","longitude":"-122.713089007345","latitude":"45.54176525","phone":"5032267623","website_url":"http://www.portlandbrewing.com","updated_at":"2018-08-24T16:04:11.269Z","tag_list":[]},{"id":5910,"name":"Portland U-Brew & Pub","brewery_type":"brewpub","street":"6237 SE Milwaukie Ave","city":"Portland","state":"Oregon","postal_code":"97202-","country":"United States","longitude":"-122.649392986749","latitude":"45.47740515","phone":"5039432727","website_url":"http://www.portlandubrewandpub.com","updated_at":"2018-08-24T16:04:12.800Z","tag_list":[]},{"id":3063,"name":"Rising Tide Brewing Co","brewery_type":"micro","street":"103 Fox St","city":"Portland","state":"Maine","postal_code":"04101-2539","country":"United States","longitude":"-70.2570974","latitude":"43.6655545","phone":"2073702337","website_url":"http://www.risingtidebrewing.com","updated_at":"2018-08-24T00:40:06.303Z","tag_list":[]},{"id":5920,"name":"Rock Bottom Brewery - Portland","brewery_type":"brewpub","street":"206 SW Morrison St","city":"Portland","state":"Oregon","postal_code":"97204-3107","country":"United States","longitude":"-122.6749783","latitude":"45.5178662","phone":"5037962739","website_url":"http://www.rockbottom.com","updated_at":"2018-08-24T16:04:27.859Z","tag_list":[]},{"id":5922,"name":"Rogue East Side Pub & Pilot Brewery","brewery_type":"micro","street":"909 SE Yamhill St","city":"Portland","state":"Oregon","postal_code":"97214-2533","country":"United States","longitude":"-122.656467040816","latitude":"45.5158688367347","phone":"5032413800","website_url":"http://www.buckmanbrewing.com","updated_at":"2018-08-24T16:04:30.880Z","tag_list":[]},{"id":5923,"name":"Rosenstadt Brewery LLC","brewery_type":"micro","street":"4110 SE Hawthorne Blvd # 735","city":"Portland","state":"Oregon","postal_code":"97214-5246","country":"United States","longitude":"-122.6199320937","latitude":"45.5118679","phone":"","website_url":"http://www.rosenstadtbrewery.com","updated_at":"2018-08-24T16:04:32.436Z","tag_list":[]},{"id":5924,"name":"Royale Brewing Company","brewery_type":"micro","street":"55 NE Farragut St Ste 6","city":"Portland","state":"Oregon","postal_code":"97211-2245","country":"United States","longitude":null,"latitude":null,"phone":"9712795587","website_url":"http://www.royalebeer.com","updated_at":"2018-08-11T21:39:18.318Z","tag_list":[]},{"id":5926,"name":"Ruse Brewing, LLC.","brewery_type":"proprietor","street":"4784 SE 17th Ave","city":"Portland","state":"Oregon","postal_code":"97202","country":"United States","longitude":"-122.6470059","latitude":"45.4593922","phone":"5036628325","website_url":"http://www.rusebrewing.com","updated_at":"2018-08-24T16:04:37.029Z","tag_list":[]},{"id":5931,"name":"Sasquatch Brewery","brewery_type":"micro","street":"2531 NW 30th Ave","city":"Portland","state":"Oregon","postal_code":"97210-2015","country":"United States","longitude":"-122.712570924623","latitude":"45.5400892211055","phone":"5038415687","website_url":"http://www.sasquatchbrewery.com","updated_at":"2018-08-24T16:04:44.584Z","tag_list":[]},{"id":5932,"name":"Sasquatch Pub","brewery_type":"brewpub","street":"6440 SW Capitol Hwy.","city":"Portland","state":"Oregon","postal_code":"97239","country":"United States","longitude":"-122.698813209433","latitude":"45.4776303","phone":"5038415687","website_url":"","updated_at":"2018-08-24T16:04:46.081Z","tag_list":[]},{"id":5933,"name":"Scout Beer","brewery_type":"micro","street":"1516 SE 10th Ave","city":"Portland","state":"Oregon","postal_code":"97214-3585","country":"United States","longitude":"-122.655590489796","latitude":"45.5120189183673","phone":"5032064735","website_url":"http://www.scoutpdx.com","updated_at":"2018-08-24T15:47:12.443Z","tag_list":[]},{"id":3070,"name":"Sea Dog Brewing Co - S. Portland","brewery_type":"brewpub","street":"125 Western Ave","city":"S Portland","state":"Maine","postal_code":"04106-2413","country":"United States","longitude":"-70.3190306679039","latitude":"43.63519195","phone":"2078717000","website_url":"http://www.seadogbrewing.com","updated_at":"2018-08-24T00:40:09.500Z","tag_list":[]},{"id":5935,"name":"Second Profession Brewing Company","brewery_type":"brewpub","street":"5846 NE Sandy Blvd","city":"Portland","state":"Oregon","postal_code":"97213-3436","country":"United States","longitude":"-122.498321","latitude":"45.5499485","phone":"5032885882","website_url":"http://www.secondprofessionbrewing.com","updated_at":"2018-08-24T16:04:49.153Z","tag_list":[]},{"id":3075,"name":"Shipyard Brewing Co","brewery_type":"regional","street":"86 Newbury St","city":"Portland","state":"Maine","postal_code":"04101-4219","country":"United States","longitude":"-70.2486231394133","latitude":"43.6615851","phone":"2077610807","website_url":"http://www.shipyard.com","updated_at":"2018-08-24T00:40:11.302Z","tag_list":[]},{"id":5950,"name":"StormBreaker Brewing","brewery_type":"brewpub","street":"832 N Beech St","city":"Portland","state":"Oregon","postal_code":"97227-1215","country":"United States","longitude":"-122.675157299793","latitude":"45.54943475","phone":"","website_url":"","updated_at":"2018-08-24T16:05:08.555Z","tag_list":[]},{"id":5951,"name":"StormBreaker Brewing St. Johns","brewery_type":"brewpub","street":"8409 N Lombard St","city":"Portland","state":"Oregon","postal_code":"97203","country":"United States","longitude":"-122.753038","latitude":"45.58988575","phone":"9712551481","website_url":"http://www.stormbreakerbrewing.com","updated_at":"2018-08-24T16:05:10.161Z","tag_list":[]},{"id":5953,"name":"Super Brewing Company LLC","brewery_type":"planning","street":"","city":"Portland","state":"Oregon","postal_code":"97202","country":"United States","longitude":null,"latitude":null,"phone":"5037193435","website_url":"","updated_at":"2018-08-11T21:39:19.606Z","tag_list":[]},{"id":5966,"name":"Upright Brewing Co","brewery_type":"micro","street":"240 N Broadway Ste 2","city":"Portland","state":"Oregon","postal_code":"97227-1880","country":"United States","longitude":null,"latitude":null,"phone":"","website_url":"http://www.uprightbrewing.com","updated_at":"2018-08-11T21:39:20.014Z","tag_list":[]},{"id":5967,"name":"Uptown Market Brewing","brewery_type":"micro","street":"6620 SW Scholls Ferry Rd","city":"Portland","state":"Oregon","postal_code":"97223-7166","country":"United States","longitude":"-122.7423002","latitude":"45.4958797","phone":"5033364783","website_url":"http://www.uptownmarketpdx.com","updated_at":"2018-08-24T16:05:31.177Z","tag_list":[]},{"id":5970,"name":"Vanport Brewing Company","brewery_type":"planning","street":"","city":"Portland","state":"Oregon","postal_code":"97211-2907","country":"United States","longitude":null,"latitude":null,"phone":"5032670219","website_url":"","updated_at":"2018-08-11T21:39:20.562Z","tag_list":[]},{"id":5972,"name":"Von Ebert Brewing","brewery_type":"brewpub","street":"131 NW 13th Ave","city":"Portland","state":"Oregon","postal_code":"97209-4110","country":"United States","longitude":"-122.684305755102","latitude":"45.5238972653061","phone":"5038207721","website_url":"http://vonebertbrewing.com","updated_at":"2018-08-24T16:05:37.128Z","tag_list":[]},{"id":5973,"name":"Von Ebert Brewing","brewery_type":"planning","street":"","city":"Portland","state":"Oregon","postal_code":"97230","country":"United States","longitude":null,"latitude":null,"phone":"","website_url":"","updated_at":"2018-08-11T21:39:20.738Z","tag_list":[]},{"id":5976,"name":"Wayfinder Beer","brewery_type":"brewpub","street":"304 SE 2nd Ave","city":"Portland","state":"Oregon","postal_code":"97214-1008","country":"United States","longitude":"-122.663488099778","latitude":"45.5208914","phone":"5037182337","website_url":"http://www.wayfinder.beer","updated_at":"2018-08-24T16:05:40.037Z","tag_list":[]},{"id":5979,"name":"Widmer Brothers Brewing","brewery_type":"regional","street":"929 N Russell St","city":"Portland","state":"Oregon","postal_code":"97227-1733","country":"United States","longitude":"-122.676298285714","latitude":"45.5410952857143","phone":"5032812437","website_url":"","updated_at":"2018-08-24T16:05:44.516Z","tag_list":[]},{"id":5990,"name":"Zoiglhaus Brewing Company","brewery_type":"brewpub","street":"5716 SE 92nd Ave","city":"Portland","state":"Oregon","postal_code":"97266-4659","country":"United States","longitude":"-122.5679347","latitude":"45.4808905","phone":"9713392374","website_url":"http://www.zoiglhaus.com","updated_at":"2018-08-24T16:05:57.716Z","tag_list":[]}]