[{"id":7347,"name":"Bad Jimmy's Brewing Co","brewery_type":"micro","street":"4358B Leary Way NW","city":"Seattle","state":"Washington","postal_code":"98107-4554","country":"United States","longitude":null,"latitude":null,"phone":"2067891548","website_url":"http://www.badjimmysbrewingco.com","updated_at":"2018-08-11T21:40:11.848Z","tag_list":[]},{"id":7350,"name":"Bainbridge Island Brewing","brewery_type":"micro","street":"9415 Coppertop Loop NE Ste 104","city":"Seattle","state":"Washington","postal_code":"98110-3339","country":"United States","longitude":null,"latitude":null,"phone":"2064514646","website_url":"http://www.bainbridgebeer.com","updated_at":"2018-08-11T21:40:11.946Z","tag_list":[]},{"id":7358,"name":"Belltown Brewery","brewery_type":"brewpub","street":"200 Bell St","city":"Seattle","state":"Washington","postal_code":"98121-1716","country":"United States","longitude":"-122.3456669","latitude":"47.6142953","phone":"2064857233","website_url":"http://www.belltownbrewingseattle.com","updated_at":"2018-08-24T16:32:46.257Z","tag_list":[]},{"id":7365,"name":"Big Time Brewery","brewery_type":"brewpub","street":"4133 University Way NE","city":"Seattle","state":"Washington","postal_code":"98105-6213","country":"United States","longitude":"-122.313575948865","latitude":"47.65785225","phone":"2065454509","website_url":"http://www.bigtimebrewery.com","updated_at":"2018-08-24T16:32:56.057Z","tag_list":[]},{"id":7372,"name":"Bluebird Microcreamery and Brewery","brewery_type":"micro","street":"7400 Greenwood Ave N","city":"Seattle","state":"Washington","postal_code":"98103-5044","country":"United States","longitude":"-122.355108","latitude":"47.6826657","phone":"2066598154","website_url":"http://www.bluebirdbrewing.com","updated_at":"2018-08-24T16:33:05.363Z","tag_list":[]},{"id":7380,"name":"Brewery in Planning - Seattle","brewery_type":"planning","street":"","city":"Seattle","state":"Washington","postal_code":"98199-2747","country":"United States","longitude":null,"latitude":null,"phone":"","website_url":"","updated_at":"2018-08-11T21:40:13.000Z","tag_list":[]},{"id":7381,"name":"Brewery In Planning - Seattle","brewery_type":"planning","street":"","city":"Seattle","state":"Washington","postal_code":"98115-3330","country":"United States","longitude":null,"latitude":null,"phone":"2062871710","website_url":"","updated_at":"2018-08-11T21:40:13.034Z","tag_list":[]},{"id":7390,"name":"Burdick Brewery","brewery_type":"proprietor","street":"8520 14th Ave S","city":"Seattle","state":"Washington","postal_code":"98108-4803","country":"United States","longitude":"-122.3145617","latitude":"47.5267286","phone":"2069099632","website_url":"http://www.burdickbrewery.com","updated_at":"2018-08-24T16:33:17.490Z","tag_list":[]},{"id":7391,"name":"Burke-Gilman Brewing","brewery_type":"planning","street":"","city":"Seattle","state":"Washington","postal_code":"98105-5652","country":"United States","longitude":null,"latitude":null,"phone":"2066121439","website_url":"http://www.burkegilmanbrewing.com/","updated_at":"2018-08-11T21:40:13.385Z","tag_list":[]},{"id":7405,"name":"Cloudburst Brewing","brewery_type":"micro","street":"2116 Western Ave","city":"Seattle","state":"Washington","postal_code":"98121-2110","country":"United States","longitude":"-122.3452717","latitude":"47.6116138","phone":"2066026061","website_url":"http://www.cloudburstbrew.com","updated_at":"2018-08-24T16:33:34.739Z","tag_list":[]},{"id":7409,"name":"Counterbalance Brewing Company","brewery_type":"micro","street":"503 S Michigan St Ste B","city":"Seattle","state":"Washington","postal_code":"98108-3305","country":"United States","longitude":null,"latitude":null,"phone":"2064533615","website_url":"http://www.counterbalancebeer.com","updated_at":"2018-08-11T21:40:14.004Z","tag_list":[]},{"id":7412,"name":"Crooked Label Brewing Company","brewery_type":"planning","street":"","city":"Seattle","state":"Washington","postal_code":"98125-6454","country":"United States","longitude":null,"latitude":null,"phone":"2062931956","website_url":"","updated_at":"2018-08-11T21:40:14.079Z","tag_list":[]},{"id":7421,"name":"Dirty Couch Brewing","brewery_type":"micro","street":"","city":"Seattle","state":"Washington","postal_code":"98107","country":"United States","longitude":null,"latitude":null,"phone":"2063696614","website_url":"http://www.dirtycouchbrewing.com","updated_at":"2018-08-11T21:40:14.524Z","tag_list":[]},{"id":7439,"name":"Elliott Bay Brewery and Pub - West Seattle","brewery_type":"brewpub","street":"4720 California Ave SW","city":"Seattle","state":"Washington","postal_code":"98116-4413","country":"United States","longitude":"-122.3865765","latitude":"47.5604072","phone":"2069328695","website_url":"http://www.elliottbaybrewing.com","updated_at":"2018-08-24T16:34:16.052Z","tag_list":[]},{"id":7441,"name":"Elliott Bay Public House & Brewery - Lake City","brewery_type":"brewpub","street":"12537 Lake City Way NE","city":"Seattle","state":"Washington","postal_code":"98125-4424","country":"United States","longitude":"-122.2948936","latitude":"47.7203026","phone":"2063652337","website_url":"http://www.elliottbaybrewing.com","updated_at":"2018-08-24T16:34:19.177Z","tag_list":[]},{"id":7443,"name":"Elysian Brewing Co","brewery_type":"large","street":"1221 E Pike St","city":"Seattle","state":"Washington","postal_code":"98122-3910","country":"United States","longitude":"-122.3157647","latitude":"47.6139598","phone":"2068601920","website_url":"http://www.elysianbrewing.com","updated_at":"2018-08-24T16:34:22.193Z","tag_list":[]},{"id":7442,"name":"Elysian Brewing Co","brewery_type":"large","street":"5510 Airport Way S","city":"Seattle","state":"Washington","postal_code":"98108-2255","country":"United States","longitude":"-122.3205871","latitude":"47.5533243","phone":"2068601920","website_url":"http://www.elysianbrewing.com","updated_at":"2018-08-24T16:34:20.691Z","tag_list":[]},{"id":7444,"name":"Elysian Brewing Co - Elysian Fields","brewery_type":"large","street":"542 1st Ave S Ste B","city":"Seattle","state":"Washington","postal_code":"98104-2882","country":"United States","longitude":null,"latitude":null,"phone":"2063824498","website_url":"http://www.elysianbrewing.com","updated_at":"2018-08-11T21:40:15.459Z","tag_list":[]},{"id":7445,"name":"Elysian Brewing Co -Tangletown","brewery_type":"large","street":"2106 N 55th St","city":"Seattle","state":"Washington","postal_code":"98103-6202","country":"United States","longitude":"-122.333474","latitude":"47.6687837","phone":"2065475929","website_url":"","updated_at":"2018-08-24T16:34:25.309Z","tag_list":[]},{"id":7451,"name":"Fair Isle Brewing","brewery_type":"planning","street":"","city":"Seattle","state":"Washington","postal_code":"98199-1121","country":"United States","longitude":null,"latitude":null,"phone":"2066041317","website_url":"http://www.fairislebrewing.com","updated_at":"2018-08-11T21:40:15.666Z","tag_list":[]},{"id":7456,"name":"Figurehead Brewing Company","brewery_type":"micro","street":"4001 21st Ave W Unit B","city":"Seattle","state":"Washington","postal_code":"98199-1201","country":"United States","longitude":null,"latitude":null,"phone":"2064927981","website_url":"http://www.figureheadbrewingcompany.com","updated_at":"2018-08-11T21:40:15.840Z","tag_list":[]},{"id":7461,"name":"Floating Bridge Brewing","brewery_type":"micro","street":"722 NE 45th St","city":"Seattle","state":"Washington","postal_code":"98105-4719","country":"United States","longitude":"-122.319801733641","latitude":"47.6615295","phone":"2064664784","website_url":"http://www.floatingbridgebrewing.com","updated_at":"2018-08-24T16:34:44.945Z","tag_list":[]},{"id":7462,"name":"Floodland Brewing","brewery_type":"micro","street":"3806 Woodland Park Ave North Suite 100","city":"Seattle","state":"Washington","postal_code":"98103","country":"United States","longitude":null,"latitude":null,"phone":"2064862854","website_url":"http://www.floodlandbrewing.com","updated_at":"2018-08-11T21:40:16.083Z","tag_list":[]},{"id":7465,"name":"Flying Bike Cooperative Brewery","brewery_type":"micro","street":"8570 Greenwood Ave N","city":"Seattle","state":"Washington","postal_code":"98103-3614","country":"United States","longitude":"-122.3550721","latitude":"47.6920561","phone":"2064287709","website_url":"http://www.flyingbike.coop","updated_at":"2018-08-24T16:34:51.311Z","tag_list":[]},{"id":7466,"name":"Flying Lion Brewing","brewery_type":"micro","street":"5041 Rainier Ave S Ste 106","city":"Seattle","state":"Washington","postal_code":"98118-1946","country":"United States","longitude":"-122.2840136","latitude":"47.5560348","phone":"2066599912","website_url":"http://www.flyinglionbrewing.com","updated_at":"2018-08-24T16:34:52.988Z","tag_list":[]},{"id":7475,"name":"Fremont Brewing Co","brewery_type":"regional","street":"3409 Woodland Park Ave N","city":"Seattle","state":"Washington","postal_code":"98103-8925","country":"United States","longitude":"-122.3444367","latitude":"47.64919175","phone":"2064202407","website_url":"http://www.fremontbrewing.com","updated_at":"2018-08-24T16:35:05.351Z","tag_list":[]},{"id":7477,"name":"Future Primitive Brewing Company","brewery_type":"planning","street":"","city":"Seattle","state":"Washington","postal_code":"98106-2816","country":"United States","longitude":null,"latitude":null,"phone":"2068192241","website_url":"http://www.unifiedbrewing.com","updated_at":"2018-08-11T21:40:16.873Z","tag_list":[]},{"id":7482,"name":"Georgetown Brewing Co","brewery_type":"regional","street":"5200 Denver Ave S","city":"Seattle","state":"Washington","postal_code":"98108-2246","country":"United States","longitude":"-122.3256809","latitude":"47.5552618","phone":"2067668055","website_url":"http://www.georgetownbeer.com","updated_at":"2018-08-24T16:35:14.951Z","tag_list":[]},{"id":7484,"name":"Ghostfish Brewing Company","brewery_type":"micro","street":"2942 1st Ave S","city":"Seattle","state":"Washington","postal_code":"98134-1820","country":"United States","longitude":"-122.3338908","latitude":"47.5763508","phone":"2532494650","website_url":"http://www.ghostfishbrewing.com","updated_at":"2018-08-24T16:35:18.036Z","tag_list":[]},{"id":7487,"name":"Gordon Biersch Brewery Restaurant - Seattle","brewery_type":"brewpub","street":"600 Pine St Ste 401","city":"Seattle","state":"Washington","postal_code":"98101-3709","country":"United States","longitude":null,"latitude":null,"phone":"2064054205","website_url":"http://www.craftworksrestaurants.com","updated_at":"2018-08-11T21:40:17.213Z","tag_list":[]},{"id":7493,"name":"Hale's Ales Brewery and Pub","brewery_type":"micro","street":"4301 Leary Way NW","city":"Seattle","state":"Washington","postal_code":"98107-4538","country":"United States","longitude":"-122.36559094051","latitude":"47.6592451","phone":"2069632118","website_url":"http://www.halesbrewery.com","updated_at":"2018-08-24T16:35:30.409Z","tag_list":[]},{"id":7499,"name":"Hellbent Brewing Company","brewery_type":"micro","street":"13035 Lake City Way NE","city":"Seattle","state":"Washington","postal_code":"98125-4428","country":"United States","longitude":"-122.2931111","latitude":"47.7238772","phone":"2063613707","website_url":"http://www.hellbentbrewingcompany.com","updated_at":"2018-08-24T16:35:37.928Z","tag_list":[]},{"id":7505,"name":"Holy Mountain Brewing Co","brewery_type":"micro","street":"1421 Elliott Ave W","city":"Seattle","state":"Washington","postal_code":"98119-3104","country":"United States","longitude":"-122.3745615","latitude":"47.6308277","phone":"2064988435","website_url":"http://holymountainbrewing.com","updated_at":"2018-08-24T16:35:45.468Z","tag_list":[]},{"id":7519,"name":"Jellyfish Brewing Company","brewery_type":"micro","street":"","city":"Seattle","state":"Washington","postal_code":"98108-2747","country":"United States","longitude":null,"latitude":null,"phone":"2063974999","website_url":"http://www.jellyfishbrewing.com","updated_at":"2018-08-11T21:40:18.387Z","tag_list":[]},{"id":7525,"name":"Ladd & Lass Brewing","brewery_type":"planning","street":"","city":"Seattle","state":"Washington","postal_code":"98122","country":"United States","longitude":null,"latitude":null,"phone":"","website_url":"http://www.laddandlassbrewing.com","updated_at":"2018-08-11T21:40:18.662Z","tag_list":[]},{"id":7526,"name":"Lagunitas Seattle Taproom and Beer Sanctuary","brewery_type":"brewpub","street":"1550 NW 49th St","city":"Seattle","state":"Washington","postal_code":"98107-4731","country":"United States","longitude":"-122.3784629","latitude":"47.6645881","phone":"2067842230","website_url":"","updated_at":"2018-08-24T16:36:09.395Z","tag_list":[]},{"id":7530,"name":"Lantern Brewing","brewery_type":"micro","street":"938 N 95th St","city":"Seattle","state":"Washington","postal_code":"98103-3206","country":"United States","longitude":"-122.3455994","latitude":"47.6980806","phone":"2067295350","website_url":"http://www.lanternbrewing.com","updated_at":"2018-08-24T16:36:15.323Z","tag_list":[]},{"id":7540,"name":"Lowercase Brewing - Production Facility","brewery_type":"brewpub","street":"8103 8th Ave S","city":"Seattle","state":"Washington","postal_code":"98108-4377","country":"United States","longitude":"-122.323155761054","latitude":"47.53034","phone":"2062584987","website_url":"http://www.lowercasebrewing.com","updated_at":"2018-08-24T16:36:27.489Z","tag_list":[]},{"id":7541,"name":"Lucky Envelope Brewing","brewery_type":"micro","street":"907 NW 50th St","city":"Seattle","state":"Washington","postal_code":"98107-3635","country":"United States","longitude":"-122.3691135","latitude":"47.6648583","phone":"2062890425","website_url":"http://www.luckyenvelopebrewing.com","updated_at":"2018-08-24T16:36:28.967Z","tag_list":[]},{"id":7544,"name":"Machine House Brewery","brewery_type":"micro","street":"5840 Airport Way S Ste 121","city":"Seattle","state":"Washington","postal_code":"98108-2751","country":"United States","longitude":"-122.3171301","latitude":"47.5502618","phone":"2064026025","website_url":"http://MachineHousebrewery.com","updated_at":"2018-08-24T16:36:33.511Z","tag_list":[]},{"id":7546,"name":"Magnuson Cafe and Brewery","brewery_type":"planning","street":"","city":"Seattle","state":"Washington","postal_code":"98115","country":"United States","longitude":null,"latitude":null,"phone":"","website_url":"","updated_at":"2018-08-11T21:40:19.790Z","tag_list":[]},{"id":7548,"name":"Maritime Pacific Brewing Co","brewery_type":"micro","street":"1111 NW Ballard Way","city":"Seattle","state":"Washington","postal_code":"98107-4639","country":"United States","longitude":null,"latitude":null,"phone":"2067826181","website_url":"http://www.maritimebrewery.com","updated_at":"2018-08-11T21:40:19.917Z","tag_list":[]},{"id":7555,"name":"McMenamins Queen Anne Brewery","brewery_type":"micro","street":"200 Roy St Ste 105","city":"Seattle","state":"Washington","postal_code":"98109-4110","country":"United States","longitude":"-122.3520571","latitude":"47.6255427","phone":"2062854722","website_url":"http://www.mcmenamins.com","updated_at":"2018-08-24T16:36:47.024Z","tag_list":[]},{"id":7566,"name":"Mollusk Brewing","brewery_type":"brewpub","street":"803 Dexter Ave N","city":"Seattle","state":"Washington","postal_code":"98109-4320","country":"United States","longitude":"-122.3425442","latitude":"47.6269357","phone":"2064031228","website_url":"http://www.molluskseattle.com","updated_at":"2018-08-24T16:37:03.529Z","tag_list":[]},{"id":7571,"name":"Naked City Brewing Co","brewery_type":"brewpub","street":"8564 Greenwood Ave N","city":"Seattle","state":"Washington","postal_code":"98103-3614","country":"United States","longitude":"-122.3550832","latitude":"47.6918221","phone":"2068386299","website_url":"http://www.nakedcitybrewing.com","updated_at":"2018-08-24T16:37:11.160Z","tag_list":[]},{"id":7587,"name":"Northwest Peaks Brewery","brewery_type":"micro","street":"5718 Rainier Ave S","city":"Seattle","state":"Washington","postal_code":"98118-2704","country":"United States","longitude":"-122.277436437754","latitude":"47.5509916925813","phone":"2067252337","website_url":"http://www.nwpeaksbrewery.com","updated_at":"2018-08-24T16:37:30.036Z","tag_list":[]},{"id":7590,"name":"Obec Brewing","brewery_type":"micro","street":"1144 NW 52nd St","city":"Seattle","state":"Washington","postal_code":"98107-5129","country":"United States","longitude":"-122.3725178","latitude":"47.6666586","phone":"2066590082","website_url":"http://www.obecbrewing.com","updated_at":"2018-08-24T16:37:33.547Z","tag_list":[]},{"id":7597,"name":"Old Stove Brewing Company","brewery_type":"brewpub","street":"1916 Pike Pl Ste 12 # 420","city":"Seattle","state":"Washington","postal_code":"98101-1056","country":"United States","longitude":null,"latitude":null,"phone":"2066602682","website_url":"http://www.oldstove.com","updated_at":"2018-08-11T21:40:22.804Z","tag_list":[]},{"id":7599,"name":"Optimism Brewing Company","brewery_type":"micro","street":"1158 Broadway","city":"Seattle","state":"Washington","postal_code":"98122-3822","country":"United States","longitude":null,"latitude":null,"phone":"2062289227","website_url":"http://www.optimismbrewing.com","updated_at":"2018-08-11T21:40:22.865Z","tag_list":[]},{"id":7602,"name":"Outer Planet Craft Brewing","brewery_type":"micro","street":"1812 12th Ave","city":"Seattle","state":"Washington","postal_code":"98122-8420","country":"United States","longitude":"-122.3167381","latitude":"47.6180009","phone":"2067637000","website_url":"http://www.outerplanetbrewing.com","updated_at":"2018-08-24T16:37:48.780Z","tag_list":[]},{"id":7603,"name":"Outlander Brewery & Pub","brewery_type":"brewpub","street":"225 N 36th St","city":"Seattle","state":"Washington","postal_code":"98103-8610","country":"United States","longitude":"-122.3555596","latitude":"47.6523014","phone":"2064864088","website_url":"http://www.outlanderbrewing.com","updated_at":"2018-08-24T16:37:50.298Z","tag_list":[]},{"id":7610,"name":"Peddler Brewing","brewery_type":"micro","street":"1514 NW Leary Way","city":"Seattle","state":"Washington","postal_code":"98107-4739","country":"United States","longitude":"-122.37703","latitude":"47.6638679","phone":"3603620002","website_url":"http://www.peddlerbrewing.com","updated_at":"2018-08-24T16:37:59.230Z","tag_list":[]},{"id":7611,"name":"Perihelion Brewery","brewery_type":"brewpub","street":"2800 16th Ave S","city":"Seattle","state":"Washington","postal_code":"98144-5732","country":"United States","longitude":"-122.3118193","latitude":"47.5784432","phone":"2062003935","website_url":"","updated_at":"2018-08-24T16:38:00.735Z","tag_list":[]},{"id":7613,"name":"Pike Brewing Co","brewery_type":"micro","street":"1415 1st Ave","city":"Seattle","state":"Washington","postal_code":"98101-2017","country":"United States","longitude":"-122.3397179","latitude":"47.6082151","phone":"2066223373","website_url":"http://www.pikebrewing.com","updated_at":"2018-08-24T16:38:03.807Z","tag_list":[]},{"id":7614,"name":"Populuxe Brewing","brewery_type":"micro","street":"826 NW 49th St","city":"Seattle","state":"Washington","postal_code":"98107-3614","country":"United States","longitude":"-122.3680288","latitude":"47.6645382","phone":"2067063400","website_url":"http://www.populuxebrewing.com","updated_at":"2018-08-24T16:38:05.297Z","tag_list":[]},{"id":7620,"name":"Pyramid Breweries / North American Breweries","brewery_type":"brewpub","street":"1201 1st Ave S","city":"Seattle","state":"Washington","postal_code":"98134-1238","country":"United States","longitude":"-122.33477","latitude":"47.5920086","phone":"2066823377","website_url":"http://www.pyramidbrew.com","updated_at":"2018-08-24T16:38:12.872Z","tag_list":[]},{"id":7631,"name":"RAM Restaurant and Brewery- Northgate","brewery_type":"brewpub","street":"401 NE Northgate Way Spc 1102","city":"Seattle","state":"Washington","postal_code":"98125-8538","country":"United States","longitude":null,"latitude":null,"phone":"2063648000","website_url":"http://www.theram.com","updated_at":"2018-08-11T21:40:24.467Z","tag_list":[]},{"id":7629,"name":"RAM Restaurant and Brewery - Seattle","brewery_type":"brewpub","street":"2650 NE University Village St","city":"Seattle","state":"Washington","postal_code":"98105-5023","country":"United States","longitude":"-122.2980609","latitude":"47.6641459","phone":"2065253565","website_url":"http://www.theram.com","updated_at":"2018-08-24T16:38:26.383Z","tag_list":[]},{"id":7633,"name":"Ravenna Brewing Company","brewery_type":"micro","street":"5408 26th Ave NE","city":"Seattle","state":"Washington","postal_code":"98105-3137","country":"United States","longitude":"-122.299162006348","latitude":"47.6682272","phone":"2067438450","website_url":"http://www.ravennabrewing.com","updated_at":"2018-08-24T16:38:32.485Z","tag_list":[]},{"id":7634,"name":"Redhook Brewery","brewery_type":"regional","street":"714 E Pike St","city":"Seattle","state":"Washington","postal_code":"98122-4697","country":"United States","longitude":"-122.3227119","latitude":"47.6144468","phone":"4254833232","website_url":"http://www.redhook.com","updated_at":"2018-08-24T16:38:34.000Z","tag_list":[]},{"id":7638,"name":"Reuben's Brews","brewery_type":"micro","street":"1133 NW 51st St","city":"Seattle","state":"Washington","postal_code":"98107-5126","country":"United States","longitude":"-122.3721641","latitude":"47.6655088","phone":"2067842859","website_url":"http://www.reubensbrews.com","updated_at":"2018-08-24T16:38:38.492Z","tag_list":[]},{"id":7639,"name":"Reuben's Brews Taproom","brewery_type":"micro","street":"5010 14th Ave NW","city":"Seattle","state":"Washington","postal_code":"98107-5113","country":"United States","longitude":"-122.3732468","latitude":"47.6654087","phone":"2067842859","website_url":"http://www.reubensbrews.com","updated_at":"2018-08-24T16:38:39.980Z","tag_list":[]},{"id":7650,"name":"Rooftop Brewing Co","brewery_type":"micro","street":"1220 W Nickerson St","city":"Seattle","state":"Washington","postal_code":"98119-1325","country":"United States","longitude":"-122.3732188","latitude":"47.6557532","phone":"2064578598","website_url":"http://www.rooftopbrewco.com","updated_at":"2018-08-24T16:38:56.569Z","tag_list":[]},{"id":7657,"name":"Schooner Exact Brewing Co","brewery_type":"micro","street":"3901 1st Ave S","city":"Seattle","state":"Washington","postal_code":"98134-2236","country":"United States","longitude":"-122.3354879","latitude":"47.5678008","phone":"2064329734","website_url":"","updated_at":"2018-08-24T16:39:07.161Z","tag_list":[]},{"id":7660,"name":"Seapine Brewing Company","brewery_type":"micro","street":"2959 Utah Ave S","city":"Seattle","state":"Washington","postal_code":"98134-1815","country":"United States","longitude":"-122.335500297762","latitude":"47.5760786","phone":"5309028110","website_url":"http://www.seapinebrewing.com","updated_at":"2018-08-24T16:39:11.590Z","tag_list":[]},{"id":7680,"name":"Standard Brewing","brewery_type":"brewpub","street":"2504 S Jackson St Ste C","city":"Seattle","state":"Washington","postal_code":"98144-2382","country":"United States","longitude":null,"latitude":null,"phone":"2065351584","website_url":"http://www.standardbrew.com","updated_at":"2018-08-11T21:40:26.224Z","tag_list":[]},{"id":7685,"name":"Stoup Brewing","brewery_type":"micro","street":"1108 NW 52nd St","city":"Seattle","state":"Washington","postal_code":"98107-5129","country":"United States","longitude":"-122.3711883","latitude":"47.6666399","phone":"2064575524","website_url":"http://www.stoupbrewing.com","updated_at":"2018-08-24T16:39:46.431Z","tag_list":[]},{"id":7694,"name":"The Best Of Hands Barrelhouse","brewery_type":"planning","street":"","city":"Seattle","state":"Washington","postal_code":"98126-3228","country":"United States","longitude":null,"latitude":null,"phone":"2063352739","website_url":"http://www.bestofhandsbarrelhouse.com","updated_at":"2018-08-11T21:40:26.657Z","tag_list":[]},{"id":7696,"name":"The Good Society","brewery_type":"planning","street":"","city":"Seattle","state":"Washington","postal_code":"98136-2652","country":"United States","longitude":null,"latitude":null,"phone":"","website_url":"","updated_at":"2018-08-11T21:40:26.683Z","tag_list":[]},{"id":7704,"name":"Tin Dog Brewing","brewery_type":"micro","street":"309 S Cloverdale St Ste A2","city":"Seattle","state":"Washington","postal_code":"98108-4500","country":"United States","longitude":null,"latitude":null,"phone":"2064384257","website_url":"http://www.tindogbrewing.com","updated_at":"2018-08-11T21:40:26.985Z","tag_list":[]},{"id":7709,"name":"Triple R Brewing","brewery_type":"micro","street":"916 NE 64th Street","city":"Seattle","state":"Washington","postal_code":"98115","country":"United States","longitude":"-122.3178868","latitude":"47.6752147","phone":"2065793370","website_url":"http://triplerbrewery.com","updated_at":"2018-08-24T16:40:16.587Z","tag_list":[]},{"id":7718,"name":"Urban Family Brewing","brewery_type":"micro","street":"4441 26th Ave W","city":"Seattle","state":"Washington","postal_code":"98199-1218","country":"United States","longitude":"-122.3902975","latitude":"47.6605861","phone":"2069468533","website_url":"http://www.urbanfamilybrewing.com","updated_at":"2018-08-24T16:40:24.635Z","tag_list":[]},{"id":7735,"name":"West Seattle Brewing Co","brewery_type":"micro","street":"4415 Fauntleroy Way SW","city":"Seattle","state":"Washington","postal_code":"98126-2631","country":"United States","longitude":"-122.3776296","latitude":"47.5643605","phone":"2064050972","website_url":"http://www.westseattlebrewing.com","updated_at":"2018-08-24T16:40:47.419Z","tag_list":[]}]